<?xml version="1.0" encoding="UTF-8"?>
<kml xmlns="http://www.opengis.net/kml/2.2">
  <cidade>Bento Gonçalves</cidade>
  <Document>
    <Style id="icon0">
      <IconStyle>
        <Icon>
          <href>img/farmacia.png</href>
        </Icon>
      </IconStyle>
    </Style>
    <Placemark>
      <name>Farmácia</name>
      <styleUrl>#icon0</styleUrl>
      <Point>
        <coordinates>-51.515903770923615,-29.166389107704163,0</coordinates>
      </Point>
    </Placemark>
    <Style id="icon1">
      <IconStyle>
        <Icon>
          <href>img/super-mercado.png</href>
        </Icon>
      </IconStyle>
    </Style>
    <Placemark>
      <name>Supermercado</name>
      <styleUrl>#icon1</styleUrl>
      <Point>
        <coordinates>-51.51626318693161,-29.16742444038391,0</coordinates>
      </Point>
    </Placemark>
    <Style id="icon2">
      <IconStyle>
        <Icon>
          <href>img/lanchonete.png</href>
        </Icon>
      </IconStyle>
    </Style>
    <Placemark>
      <name>Lanchonete</name>
      <styleUrl>#icon2</styleUrl>
      <Point>
        <coordinates>-51.51460021734238,-29.167011380195618,0</coordinates>
      </Point>
    </Placemark>
    <Style id="icon3">
      <IconStyle>
        <Icon>
          <href>img/banco-03.png</href>
        </Icon>
      </IconStyle>
    </Style>
    <Placemark>
      <name>Banco 03</name>
      <styleUrl>#icon3</styleUrl>
      <Point>
        <coordinates>-51.514184474945075,-29.16548252105713,0</coordinates>
      </Point>
    </Placemark>
    <Style id="icon4">
      <IconStyle>
        <Icon>
          <href>img/termo-eletrica.png</href>
        </Icon>
      </IconStyle>
    </Style>
    <Placemark>
      <name>Termoelétrica</name>
      <styleUrl>#icon4</styleUrl>
      <Point>
        <coordinates>-51.51373654603959,-29.168899655342102,0</coordinates>
      </Point>
    </Placemark>
    <Geoletter>
      <name>suas considerações aqui!  Lugar Bacanudo!</name>
      <Point>
        <coordinates>-51.51608616113663,-29.16650176048279,0</coordinates>
      </Point>
    </Geoletter>
    <Geoletter>
      <name> molho de tomate muito forte!</name>
      <Point>
        <coordinates>-51.51460021734238,-29.16701138019562,0</coordinates>
      </Point>
    </Geoletter>
    <Geoletter>
      <name> Altos preços!</name>
      <Point>
        <coordinates>-51.51626318693162,-29.16742444038391,0</coordinates>
      </Point>
    </Geoletter>
    <Geoletter>
      <name><br/> minhas considerações!</name>
      <Point>
        <coordinates>-51.51494354009628,-29.16824519634247,0</coordinates>
      </Point>
    </Geoletter>
    <Camera>
      <longitude>-51.5169861</longitude>
      <latitude>-29.1667089</latitude>
    </Camera>
  </Document>
</kml>
