<?xml version="1.0" encoding="UTF-8"?><kml xmlns="http://www.opengis.net/kml/2.2"><Document><Document><Placemark><name>Banco 01</name><Model><Location><longitude>-51.51838409901757</longitude><latitude>-29.167891980789822</latitude></Location><Link><href>img/banco-01.png</href></Link></Model></Placemark><Placemark><name>Banco 02</name><Model><Location><longitude>-51.518201708804554</longitude><latitude>-29.168247978216073</latitude></Location><Link><href>img/banco-02.png</href></Link></Model></Placemark><Placemark><name>Banco 03</name><Model><Location><longitude>-51.518416285525745</longitude><latitude>-29.168463449742717</latitude></Location><Link><href>img/banco-03.png</href></Link></Model></Placemark><Placemark><name>Lanchonete</name><Model><Location><longitude>-51.51826608182091</longitude><latitude>-29.168678920817086</latitude></Location><Link><href>img/lanchonete.png</href></Link></Model></Placemark><Placemark><name>Loja</name><Model><Location><longitude>-51.51825535298485</longitude><latitude>-29.169077072699228</latitude></Location><Link><href>img/loja.png</href></Link></Model></Placemark><Placemark><name>Posto de Gasolina</name><Model><Location><longitude>-51.51710200310845</longitude><latitude>-29.169226964772367</latitude></Location><Link><href>img/posto-de-gasolina.png</href></Link></Model></Placemark><Placemark><name>Super Mercado</name><Model><Location><longitude>-51.51685523987908</longitude><latitude>-29.17021062607095</latitude></Location><Link><href>img/super-mercado.png</href></Link></Model></Placemark><Placemark><name>Biblioteca</name><Model><Location><longitude>-51.517681360255665</longitude><latitude>-29.170632192313242</latitude></Location><Link><href>img/biblioteca.png</href></Link></Model></Placemark><Placemark><name>Escola</name><Model><Location><longitude>-51.516699671756214</longitude><latitude>-29.170927287652642</latitude></Location><Link><href>img/escola.png</href></Link></Model></Placemark><Placemark><name>Universidade</name><Model><Location><longitude>-51.51555705071587</longitude><latitude>-29.17121769811073</latitude></Location><Link><href>img/universidade.png</href></Link></Model></Placemark><Placemark><name>Casa de Luxo</name><Model><Location><longitude>-51.514183759700245</longitude><latitude>-29.171522159805473</latitude></Location><Link><href>img/casa-de-luxo.png</href></Link></Model></Placemark><Placemark><name>Casa Média</name><Model><Location><longitude>-51.513191342364735</longitude><latitude>-29.171442531449447</latitude></Location><Link><href>img/casa-media.png</href></Link></Model></Placemark><Placemark><name>Casa Simples</name><Model><Location><longitude>-51.512654900725465</longitude><latitude>-29.17131606275702</latitude></Location><Link><href>img/casa-simples.png</href></Link></Model></Placemark><Placemark><name>Prédio de Luxo</name><Model><Location><longitude>-51.51205945032416</longitude><latitude>-29.17136758705793</latitude></Location><Link><href>img/predio-de-luxo.png</href></Link></Model></Placemark><Placemark><name>Prédio Medio</name><Model><Location><longitude>-51.51127088087378</longitude><latitude>-29.17140505926054</latitude></Location><Link><href>img/predio-medio.png</href></Link></Model></Placemark><Placemark><name>Prédio Simples</name><Model><Location><longitude>-51.51032674330054</longitude><latitude>-29.171320746785444</latitude></Location><Link><href>img/predio-simples.png</href></Link></Model></Placemark><Placemark><name>Bombeiros</name><Model><Location><longitude>-51.509135842497926</longitude><latitude>-29.17136758705793</latitude></Location><Link><href>img/bombeiros.png</href></Link></Model></Placemark><Placemark><name>Ciclo Parque</name><Model><Location><longitude>-51.50929141062079</longitude><latitude>-29.170435461615625</latitude></Location><Link><href>img/ciclo-paque.png</href></Link></Model></Placemark><Placemark><name>Delegacia</name><Model><Location><longitude>-51.508197069342714</longitude><latitude>-29.17025934045217</latitude></Location><Link><href>img/delegacia.png</href></Link></Model></Placemark><Placemark><name>Estaçao de Tratamento de Água</name><Model><Location><longitude>-51.50686669367133</longitude><latitude>-29.170170342955245</latitude></Location><Link><href>img/estacao-tratamento-de-agua.png</href></Link></Model></Placemark><Placemark><name>Hospital</name><Model><Location><longitude>-51.505450487311464</longitude><latitude>-29.17028744490886</latitude></Location><Link><href>img/hospital.png</href></Link></Model></Placemark><Placemark><name>Indústria</name><Model><Location><longitude>-51.505455851729494</longitude><latitude>-29.171121206956578</latitude></Location><Link><href>img/industria.png</href></Link></Model></Placemark><Placemark><name>Indùstria de Reciclagem de Lixo</name><Model><Location><longitude>-51.50662529485999</longitude><latitude>-29.17115399535625</latitude></Location><Link><href>img/industria-de-reciclagem-de-lixo.png</href></Link></Model></Placemark><Placemark><name>Parque Ecológico</name><Model><Location><longitude>-51.507923484023195</longitude><latitude>-29.171374144808727</latitude></Location><Link><href>img/parque-ecologico.png</href></Link></Model></Placemark><Placemark><name>Posto de Saúde</name><Model><Location><longitude>-51.50729048269568</longitude><latitude>-29.172025222341087</latitude></Location><Link><href>img/posto-de-saude.png</href></Link></Model></Placemark><Placemark><name>Termoelétrica</name><Model><Location><longitude>-51.50854575651465</longitude><latitude>-29.172812130680626</latitude></Location><Link><href>img/termo-eletrica.png</href></Link></Model></Placemark><Placemark><name>Usina Eólica</name><Model><Location><longitude>-51.50759089010535</longitude><latitude>-29.17354750980613</latitude></Location><Link><href>img/usina-eolica.png</href></Link></Model></Placemark><Placemark><name>Estádio de Futebol</name><Model><Location><longitude>-51.50948452966986</longitude><latitude>-29.174451503676643</latitude></Location><Link><href>img/estadio-de-futibol.png</href></Link></Model></Placemark><Placemark><name>Restaurante de Luxo</name><Model><Location><longitude>-51.51095974462805</longitude><latitude>-29.174779375133404</latitude></Location><Link><href>img/restaurante-luxo.png</href></Link></Model></Placemark><Placemark><name>Restaurante Simples</name><Model><Location><longitude>-51.51170539873419</longitude><latitude>-29.174760639649808</latitude></Location><Link><href>img/restaurante-simples.png</href></Link></Model></Placemark><Placemark><name>Sorveteria</name><Model><Location><longitude>-51.512408137496095</longitude><latitude>-29.175374224959302</latitude></Location><Link><href>img/sorveteria.png</href></Link></Model></Placemark><Camera><longitude>-51.5169861</longitude><latitude>-29.1667089</latitude><tilt>45</tilt></Camera></Document></Document></kml>