<?xml version="1.0" encoding="UTF-8"?><kml xmlns="http://www.opengis.net/kml/2.2"><Document><Document><Placemark><name>Banco 01</name><Model><Location><longitude>-51.51825535298485</longitude><latitude>-29.16742356124277</latitude></Location><Link><href>img/banco-01.png</href></Link></Model></Placemark><Placemark><name>Banco 02</name><Model><Location><longitude>-51.518142700206226</longitude><latitude>-29.16793413844423</latitude></Location><Link><href>img/banco-02.png</href></Link></Model></Placemark><Placemark><name>Banco 03</name><Model><Location><longitude>-51.518169522296375</longitude><latitude>-29.168229241540228</latitude></Location><Link><href>img/banco-03.png</href></Link></Model></Placemark><Placemark><name>Lanchonete</name><Model><Location><longitude>-51.51888835431237</longitude><latitude>-29.168023137879985</latitude></Location><Link><href>img/lanchonete.png</href></Link></Model></Placemark><Placemark><name>Loja</name><Model><Location><longitude>-51.514929413806385</longitude><latitude>-29.166416451978783</latitude></Location><Link><href>img/loja.png</href></Link></Model></Placemark><Placemark><name>Posto de Gasolina</name><Model><Location><longitude>-51.516898155223316</longitude><latitude>-29.168800708615578</latitude></Location><Link><href>img/posto-de-gasolina.png</href></Link></Model></Placemark><Placemark><name>Super Mercado</name><Model><Location><longitude>-51.51678013802666</longitude><latitude>-29.170116944448658</latitude></Location><Link><href>img/super-mercado.png</href></Link></Model></Placemark><Placemark><name>Biblioteca</name><Model><Location><longitude>-51.517692089091724</longitude><latitude>-29.170683716957452</latitude></Location><Link><href>img/biblioteca.png</href></Link></Model></Placemark><Placemark><name>Escola</name><Model><Location><longitude>-51.5166245699038</longitude><latitude>-29.169381540743554</latitude></Location><Link><href>img/escola.png</href></Link></Model></Placemark><Placemark><name>Universidade</name><Model><Location><longitude>-51.51555705071587</longitude><latitude>-29.17121769811073</latitude></Location><Link><href>img/universidade.png</href></Link></Model></Placemark><Placemark><name>Casa de Luxo</name><Model><Location><longitude>-51.514183759700245</longitude><latitude>-29.171522159805473</latitude></Location><Link><href>img/casa-de-luxo.png</href></Link></Model></Placemark><Placemark><name>Casa Média</name><Model><Location><longitude>-51.51407110692162</longitude><latitude>-29.17044014568424</latitude></Location><Link><href>img/casa-media.png</href></Link></Model></Placemark><Placemark><name>Casa Simples</name><Model><Location><longitude>-51.513658046897035</longitude><latitude>-29.1710069164084</latitude></Location><Link><href>img/casa-simples.png</href></Link></Model></Placemark><Placemark><name>Prédio de Luxo</name><Model><Location><longitude>-51.51200044172583</longitude><latitude>-29.17062282419335</latitude></Location><Link><href>img/predio-de-luxo.png</href></Link></Model></Placemark><Placemark><name>Prédio Medio</name><Model><Location><longitude>-51.51112067716895</longitude><latitude>-29.170590035766935</latitude></Location><Link><href>img/predio-medio.png</href></Link></Model></Placemark><Placemark><name>Prédio Simples</name><Model><Location><longitude>-51.51079344766913</longitude><latitude>-29.171442531449447</latitude></Location><Link><href>img/predio-simples.png</href></Link></Model></Placemark><Placemark><name>Bombeiros</name><Model><Location><longitude>-51.50931286829291</longitude><latitude>-29.171550263916384</latitude></Location><Link><href>img/bombeiros.png</href></Link></Model></Placemark><Placemark><name>Ciclo Parque</name><Model><Location><longitude>-51.50933432596503</longitude><latitude>-29.1706509285505</latitude></Location><Link><href>img/ciclo-paque.png</href></Link></Model></Placemark><Placemark><name>Delegacia</name><Model><Location><longitude>-51.50804150121985</longitude><latitude>-29.17052164841526</latitude></Location><Link><href>img/delegacia.png</href></Link></Model></Placemark><Placemark><name>Estaçao de Tratamento de Água</name><Model><Location><longitude>-51.50686669367133</longitude><latitude>-29.170170342955245</latitude></Location><Link><href>img/estacao-tratamento-de-agua.png</href></Link></Model></Placemark><Placemark><name>Hospital</name><Model><Location><longitude>-51.50498378294287</longitude><latitude>-29.17050759621995</latitude></Location><Link><href>img/hospital.png</href></Link></Model></Placemark><Placemark><name>Indústria</name><Model><Location><longitude>-51.503438830550294</longitude><latitude>-29.172278157679525</latitude></Location><Link><href>img/industria.png</href></Link></Model></Placemark><Placemark><name>Indùstria de Reciclagem de Lixo</name><Model><Location><longitude>-51.504946232016664</longitude><latitude>-29.17219853005298</latitude></Location><Link><href>img/industria-de-reciclagem-de-lixo.png</href></Link></Model></Placemark><Placemark><name>Parque Ecológico</name><Model><Location><longitude>-51.507923484023195</longitude><latitude>-29.171374144808727</latitude></Location><Link><href>img/parque-ecologico.png</href></Link></Model></Placemark><Placemark><name>Posto de Saúde</name><Model><Location><longitude>-51.5060513021308</longitude><latitude>-29.1728589702725</latitude></Location><Link><href>img/posto-de-saude.png</href></Link></Model></Placemark><Placemark><name>Termoelétrica</name><Model><Location><longitude>-51.507928848441225</longitude><latitude>-29.172203214041126</latitude></Location><Link><href>img/termo-eletrica.png</href></Link></Model></Placemark><Placemark><name>Usina Eólica</name><Model><Location><longitude>-51.50785374658881</longitude><latitude>-29.173659923985223</latitude></Location><Link><href>img/usina-eolica.png</href></Link></Model></Placemark><Placemark><name>Estádio de Futebol</name><Model><Location><longitude>-51.508427739317995</longitude><latitude>-29.175186871055395</latitude></Location><Link><href>img/estadio-de-futibol.png</href></Link></Model></Placemark><Placemark><name>Restaurante de Luxo</name><Model><Location><longitude>-51.511136770423036</longitude><latitude>-29.174456187561983</latitude></Location><Link><href>img/restaurante-luxo.png</href></Link></Model></Placemark><Placemark><name>Restaurante Simples</name><Model><Location><longitude>-51.5112923385459</longitude><latitude>-29.173608400835086</latitude></Location><Link><href>img/restaurante-simples.png</href></Link></Model></Placemark><Placemark><name>Sorveteria</name><Model><Location><longitude>-51.512408137496095</longitude><latitude>-29.175374224959302</latitude></Location><Link><href>img/sorveteria.png</href></Link></Model></Placemark><Camera><longitude>-51.5169861</longitude><latitude>-29.1667089</latitude><tilt>45</tilt></Camera></Document></Document></kml>